{
  "Freifunk": {
    "url": "https://freifunk.net/",
    "locations": [{
      "name": "MÃ¼nster, Germany",
      "lat": "51.960660",
      "lon": "7.626135"
    }, {
      "name": "Aachen, Germany",
      "lat": "50.775344",
      "lon": "6.083883"
    }, {
      "name": "Munich, Germany",
      "lat": "48.135119",
      "lon": "11.581989"
    }, {
      "name": "Stuttgart, Germany",
      "lat": "48.775848",
      "lon": "9.182929"
    }, {
      "name": "Paderborn, Germany",
      "lat": "51.718914",
      "lon": "8.757521"
    }]
  },
  "MassMesh": {
    "url": "https://massmesh.org/",
    "locations": [{
      "name": "Somerville, MA",
      "zip": "02143"
    }, {
      "name": "Allston, MA",
      "zip": "02134"
    }]
  },
  "NYCMesh": {
    "url": "https://www.nycmesh.net/",
    "locations": [{
      "name": "Manhattan, New York, NY",
      "zip": "10013"
    }, {
      "name": "Manhattan, New York, NY",
      "zip": "10024"
    }, {
      "name": "Brooklyn, New York, NY",
      "zip": "11216"
    }]
  },
  "People's Open Network": {
    "url": "https://peoplesopen.net/",
    "locations": [{
      "name": "Oakland, CA",
      "zip": "94607"
    }]
  },
  "PhillyMesh": {
    "url": "https://phillymesh.net/",
    "locations": [{
      "name": "Philadelphia, PA",
      "zip": "19102"
    }]
  },
  "Red Hook Wifi": {
    "url": "https://redhookwifi.org/",
    "locations": [{
      "name": "Red Hook, Brooklyn, NY",
      "zip": "11231"
    }]
  }
}
